{"missionSetName":"Toasty Portland Halloween","missionSetDescription":"Have a Toasty Halloween in Portland!","currentMission":5,"plannedBannerLength":6,"titleFormat":"T NN-M","fileFormatVersion":2,"missions":[{"missionTitle":"Toasty Portland Halloween 1-6","missionDescription":"Have a Toasty Halloween in Portland!","portals":[{"description":"","guid":"0752b23ef665499ea7883c58d2af1a4f.16","imageUrl":"http://lh3.googleusercontent.com/I2CbTUPhA5kTTziXRsLFRx7_tKbaloMgu-0jVJyz6cqo6noNdvBZEc2zRH-Q2c8rtVEUiTiW18PLZsVWZNEYsVM_EG0","isOrnamented":false,"isStartPoint":false,"location":{"latitude":45.514899,"longitude":-122.683514},"title":"Junior League","type":"PORTAL","objective":{"type":"HACK_PORTAL","passphrase_params":{"question":"","_single_passphrase":""}}},{"description":"","guid":"95d15460f12f409c9b85637e5b5c2c9c.16","imageUrl":"http://lh3.googleusercontent.com/UXXSELikZzSXM8MAMDydN60nuOm09j0ZuCDTzVw4Viu45hwpE4NwyC8c1hUi07X1JDfot0OX5-ANvO-kbUWsOnfzFTc","isOrnamented":false,"isStartPoint":false,"location":{"latitude":45.515136,"longitude":-122.683349},"title":"South Park Blocks Public Toilet","type":"PORTAL","objective":{"type":"HACK_PORTAL","passphrase_params":{"question":"","_single_passphrase":""}}},{"description":"","guid":"deb4b055453746f7b6569e7e58a1f89e.16","imageUrl":"http://lh3.googleusercontent.com/ZRgQqK-kxrC1hY1qS3U1o8te_tDEXHevxIsAXSVFuIO2KnXcfdUCCK0XrWKipz4UfZOQ_2rQqXX3dfYKUwtKh-1XCnc","isOrnamented":false,"isStartPoint":false,"location":{"latitude":45.515408,"longitude":-122.683191},"title":"Peace Plaza","type":"PORTAL","objective":{"type":"HACK_PORTAL","passphrase_params":{"question":"","_single_passphrase":""}}},{"description":"","guid":"9636a62b3d9e4fefaf7c529a14d1a790.16","imageUrl":"http://lh3.googleusercontent.com/cEoIF68WkIEuKkUUmu_UjMDS6IiNHSLwqZ8jgOdY-V9ZkmIRPAxwAmEhcY3rEAWYdU2Ds14ZQZd0gbadtUqREU6XdPk","isOrnamented":false,"isStartPoint":false,"location":{"latitude":45.515687,"longitude":-122.682822},"title":"We Planned It, It Worked. South Park Blocks","type":"PORTAL","objective":{"type":"HACK_PORTAL","passphrase_params":{"question":"","_single_passphrase":""}}},{"description":"","guid":"57fb11f18ac84f8d9ffc9907c66fe136.16","imageUrl":"http://lh3.googleusercontent.com/OscqoJYZoyQb3VToDFd8HYkSWXQhm8pxNZ5sBpAFJVHgcn5Wpl01B6EhXBJH8s1EW6XKTxxGJD563e9dhLCMCTYGtguw","isOrnamented":false,"isStartPoint":false,"location":{"latitude":45.515798,"longitude":-122.683033},"title":"The Great Plank Road","type":"PORTAL","objective":{"type":"HACK_PORTAL","passphrase_params":{"question":"","_single_passphrase":""}}},{"description":"","guid":"4a9e961f39e340cdad617ddbc2f5db86.16","imageUrl":"http://lh3.googleusercontent.com/IQ2SEz1IumTewONCwmL6KiZWI3DkHutmfDahmnswPMf_zN4ZQ4li-fsgAGBnK-3jgaUSCH4RIcmYQaTzNsaOUqp7Mg","isOrnamented":false,"isStartPoint":false,"location":{"latitude":45.516022,"longitude":-122.682859},"title":"Teddy Roosevelt Statue","type":"PORTAL","objective":{"type":"HACK_PORTAL","passphrase_params":{"question":"","_single_passphrase":""}}}]},{"missionTitle":"Toasty Portland Halloween 2-6","missionDescription":"Have a Toasty Halloween in Portland!","portals":[{"description":"","guid":"dac3a89fe1b74d2385b2f851aea151f1.16","imageUrl":"http://lh3.googleusercontent.com/Gwgq7NQCycXVMFYy_G4YhRPv-DUpCK-YW7bFmNTrTz6dlcEYuFrAs0Rs2yvE2aeq5ZZd9N77jFmGZhfeRORozLstcehQ","isOrnamented":false,"isStartPoint":false,"location":{"latitude":45.516244,"longitude":-122.682481},"title":"In Memory of Henrietta Ellison Failing","type":"PORTAL","objective":{"type":"HACK_PORTAL","passphrase_params":{"question":"","_single_passphrase":""}}},{"description":"","guid":"d7dd34666bb4429181793352564e424a.12","imageUrl":"http://lh3.googleusercontent.com/F7u_Soyy4TGHRMsBK1DiIuwY9tiQYJrgMhn06oB0JJuNk6YCROqnnD0B1OAkh8FmCK65phdA8ct2oFWIOxPbOXeaUi0L","isOrnamented":false,"isStartPoint":false,"location":{"latitude":45.51627,"longitude":-122.682121},"title":"First Congregational Church","type":"PORTAL","objective":{"type":"HACK_PORTAL","passphrase_params":{"question":"","_single_passphrase":""}}},{"description":"","guid":"92c39aecafc949b4a2f0d56590822390.16","imageUrl":"http://lh3.googleusercontent.com/Dz14ui1F5GZXFrVXqlKKZOzLZnKo7VH32RxcuhDkRPNZG7l_dap5UIKk4w6wjkmVSR3LE5BJKxQeM6YsIVd-qOeYVQ","isOrnamented":false,"isStartPoint":false,"location":{"latitude":45.516525,"longitude":-122.68219},"title":"Stained Glass","type":"PORTAL","objective":{"type":"HACK_PORTAL","passphrase_params":{"question":"","_single_passphrase":""}}},{"description":"","guid":"b9c5eeb2be7244709e7829233174d1ab.12","imageUrl":"http://lh3.googleusercontent.com/JKRHBxmn41jC9UZV8DKdX4UJt4gVoKUMQN8gZRmFQKQlgd8X3NDWRma3fmt93sKMr--SMLOb05FxA0R2cr7TK0skZOD9","isOrnamented":false,"isStartPoint":false,"location":{"latitude":45.516684,"longitude":-122.682496},"title":"Abraham Lincoln Statue","type":"PORTAL","objective":{"type":"HACK_PORTAL","passphrase_params":{"question":"","_single_passphrase":""}}},{"description":"","guid":"a85ba54e5eff4b3da5567d2889fb278c.16","imageUrl":"http://lh3.googleusercontent.com/R2OUzs2CzTJzawpyME3pW7tZ3Dusb0u071t3EUQ28do5AOSTY3GTFZyN4Nn659p0aVfEaF9vLTlM9yGF0AFZtg-nZQ","isOrnamented":false,"isStartPoint":false,"location":{"latitude":45.516825,"longitude":-122.682215},"title":"Brunish Theatre @ Hatfield Hall","type":"PORTAL","objective":{"type":"HACK_PORTAL","passphrase_params":{"question":"","_single_passphrase":""}}},{"description":"","guid":"750014f269804d36bfb326786312f0a0.16","imageUrl":"http://lh3.googleusercontent.com/gShiG7FYL3ZL9ueo2Z2Y2QCHkp5mvv-Ti7XcmSSLAJCQaoKKE9zuUABzqR1Sl5vbNf-yCCxFcpY7XTCBVnJga4Mhl3S_","isOrnamented":false,"isStartPoint":false,"location":{"latitude":45.517095,"longitude":-122.682268},"title":"Shemanski Fountain","type":"PORTAL","objective":{"type":"HACK_PORTAL","passphrase_params":{"question":"","_single_passphrase":""}}}]},{"missionTitle":"Toasty Portland Halloween 3-6","missionDescription":"Have a Toasty Halloween in Portland!","portals":[{"description":"","guid":"5998c7dafc194f18bc4644ae10738c37.16","imageUrl":"http://lh3.googleusercontent.com/ptQyZKUFukMZsGFx_NBSaA2N20-117FbDf7i04E5e4hO8mrG_VLxTg4L19E_UlzAV7c4CGtURiB3uqhm3L7Fywa9Y44","isOrnamented":false,"isStartPoint":false,"location":{"latitude":45.51709,"longitude":-122.681876},"title":"Arlene Schnitzer Concert Hall (Park Ave Entrance)","type":"PORTAL","objective":{"type":"HACK_PORTAL","passphrase_params":{"question":"","_single_passphrase":""}}},{"description":"","guid":"64ee83dca709417e85fb360e5c32987e.12","imageUrl":"http://lh3.googleusercontent.com/2xin8yX0jDbrpTayFTTIF4GAyLYEX_VevWzhnAjcXhd9EntZ_qMN0fJTYefHM0V_zBx0_USvAsWzrt0ZhWFuKLipKw","isOrnamented":false,"isStartPoint":false,"location":{"latitude":45.517286,"longitude":-122.68221},"title":"South Park Blocks, Portland","type":"PORTAL","objective":{"type":"HACK_PORTAL","passphrase_params":{"question":"","_single_passphrase":""}}},{"description":"","guid":"35a208bee0c748e78d02b20ee089960a.16","imageUrl":"http://lh3.googleusercontent.com/dfegd6mtUgykLbDEC6srLLsAp0BvX-M2vh0U-Fr43WB5e1cLFcU36mfld_wpRqmMHyLem0OAl0QBHo5t74lzLiVzcg","isOrnamented":false,"isStartPoint":false,"location":{"latitude":45.517592,"longitude":-122.681962},"title":"Simon Benson Memorial","type":"PORTAL","objective":{"type":"HACK_PORTAL","passphrase_params":{"question":"","_single_passphrase":""}}},{"description":"","guid":"717043618b5b4b6ea8e38e67eadaedd6.16","imageUrl":"http://lh3.googleusercontent.com/_HtnpC9fVOUUYODJPVVqJ9C-Kj50qld1UmcEHRIr0vUtVXYcIZ2_c2LJfrFOaCfpOYzrqFLwvFrDHIjC_DElRE7RZSCI","isOrnamented":false,"isStartPoint":false,"location":{"latitude":45.517652,"longitude":-122.682364},"title":"Roosevelt Hotel","type":"PORTAL","objective":{"type":"HACK_PORTAL","passphrase_params":{"question":"","_single_passphrase":""}}},{"description":"","guid":"83909221c6ee4bfaa0f37282f72fbcf8.16","imageUrl":"http://lh3.googleusercontent.com/AHF2sZzxRQNbTwev9RXd33paPQJ3AMJBg0G453cyDF3nKzxTsxdv8OhymBKd8Nth1yLh5bi2BRiK0epKjzMP7PDorg","isOrnamented":false,"isStartPoint":false,"location":{"latitude":45.517499,"longitude":-122.682538},"title":"Shell and Stars Mural","type":"PORTAL","objective":{"type":"HACK_PORTAL","passphrase_params":{"question":"","_single_passphrase":""}}},{"description":"","guid":"c3748f04f9af4a558df895f396d300a2.16","imageUrl":"http://lh3.googleusercontent.com/Y0ZOI3YTI8hEhinZ6N77YVyI5c5rdIxPYWODfOjX3OCtwMArw3MYF8BIdkkbtIcUBnaAZdVawGtuKo0-itd2z1NmwCdf","isOrnamented":false,"isStartPoint":false,"location":{"latitude":45.517245,"longitude":-122.682501},"title":"London Plane Tree","type":"PORTAL","objective":{"type":"HACK_PORTAL","passphrase_params":{"question":"","_single_passphrase":""}}}]},{"missionTitle":"Toasty Portland Halloween 4-6","missionDescription":"Have a Toasty Halloween in Portland!","portals":[{"description":"","guid":"c2111dd435e94101a350fd4338e99203.12","imageUrl":"http://lh3.googleusercontent.com/8dcAOIOFfGQfIx5nhQNQsq7ENtQrXZD9IBgh72il1-bmEkdvIiHg5mjbgmao2d6RA4hWc9kApnvjqLRi7BvK3ZEy4zsH","isOrnamented":false,"isStartPoint":false,"location":{"latitude":45.517023,"longitude":-122.682722},"title":"Winter Column","type":"PORTAL","objective":{"type":"HACK_PORTAL","passphrase_params":{"question":"","_single_passphrase":""}}},{"description":"","guid":"8bf4fadeab774a1f831a6356020d6674.16","imageUrl":"http://lh3.googleusercontent.com/QPyO5x5QZ4a1gumTIDBslMDAPCE0ZkUPuFGf-z0bQWDlqSe9U9STwX55nygqnQbNmrmieODdNIMudtBrh-PHCNwuQZ0","isOrnamented":false,"isStartPoint":false,"location":{"latitude":45.516853,"longitude":-122.682634},"title":"Safeguarding the News Sculpture","type":"PORTAL","objective":{"type":"HACK_PORTAL","passphrase_params":{"question":"","_single_passphrase":""}}},{"description":"","guid":"56f3ad9bf28a448a85c2719c439227a7.12","imageUrl":"http://lh3.googleusercontent.com/V9I7pMGKREVkHETVJapGzmvHyIlVo1LdUivoIPA903QWtooO5_-lIV3SlG-wYmfkdV9wZXKYHk_j1QH38tr1bPh3cQ","isOrnamented":false,"isStartPoint":false,"location":{"latitude":45.51674,"longitude":-122.682905},"title":"P.A.M. Mark Building","type":"PORTAL","objective":{"type":"HACK_PORTAL","passphrase_params":{"question":"","_single_passphrase":""}}},{"description":"","guid":"dbb67b83ee4347ec95b0e0382de79843.16","imageUrl":"http://lh3.googleusercontent.com/i2a5D2JgegXQtuAXnwf9rrg8jbPoJScOpzf-1_zH7hAn6JYUx7P-6nBVTSJg9_5-k2ugJd6kXfwkyvHc2z_jb4lV9ys","isOrnamented":false,"isStartPoint":false,"location":{"latitude":45.516623,"longitude":-122.682868},"title":"Brushstrokes","type":"PORTAL","objective":{"type":"HACK_PORTAL","passphrase_params":{"question":"","_single_passphrase":""}}},{"description":"","guid":"bf4cc32318f34a53be2cb1f7be291a5c.16","imageUrl":"http://lh3.googleusercontent.com/hbyf9BOl4w1AzdyuBTZyHIVORBBPlN-sjkky_Bh_dUWWmFUnwFSfVS49C3acR0O2ecyv4CjtRThL6L3T28gJ3PsYqA","isOrnamented":false,"isStartPoint":false,"location":{"latitude":45.516336,"longitude":-122.683153},"title":"Dans La Nuit","type":"PORTAL","objective":{"type":"HACK_PORTAL","passphrase_params":{"question":"","_single_passphrase":""}}},{"description":"","guid":"9784bce58f9346468225393ba8ebe8e4.12","imageUrl":"http://lh3.googleusercontent.com/4dpiIlyV7bFteXxg3c8CgfQ_eA2e5sVVjxqq7GvyNYilFirei6WBfInhexGGgDsFlvqAhfXWjU94u9VWzeDVuDh7HLQ","isOrnamented":false,"isStartPoint":false,"location":{"latitude":45.516118,"longitude":-122.683228},"title":"Portland Art Museum","type":"PORTAL","objective":{"type":"HACK_PORTAL","passphrase_params":{"question":"","_single_passphrase":""}}}]},{"missionTitle":"Toasty Portland Halloween 5-6","missionDescription":"Have a Toasty Halloween in Portland!","portals":[{"description":"","guid":"d830d3cafd8d45c2b2a95a32496c3add.16","imageUrl":"http://lh3.googleusercontent.com/mc_yQ8-cD3o44PdLMevxOOXikNjgpUP9N4_Kd9ni_RJlNwlk0Div_3NgA7Tl8HaF3TRhuucichbr5RhN4_rpVc0Hq3A","isOrnamented":false,"isStartPoint":false,"location":{"latitude":45.51588,"longitude":-122.683372},"title":"Floating Figure","type":"PORTAL","objective":{"type":"HACK_PORTAL","passphrase_params":{"question":"","_single_passphrase":""}}},{"description":"","guid":"06af210f48384ba98e75b77cae27e213.11","imageUrl":"http://lh3.googleusercontent.com/RrrJivZ69DKw31pKONQYMxaLvwFCr9dBxTrTecuGsCJhyU8j8RrisvxYuPgonkPnlWgxiqix_u_YbbzgNOeGgo4gxJ0","isOrnamented":false,"isStartPoint":false,"location":{"latitude":45.515507,"longitude":-122.683479},"title":"St. James Lutheran Church","type":"PORTAL","objective":{"type":"HACK_PORTAL","passphrase_params":{"question":"","_single_passphrase":""}}},{"description":"","guid":"9a982577e9d2435db4326b29a88b8336.16","imageUrl":"http://lh3.googleusercontent.com/vGoYYN9bIz_VrMV_g3_9kig55FoSuW1hEPDcDCeitjHWzAl0PPaWq7T9k_RRPDFPYBXLreGWfBC0We62fRMQ6Z8S-w","isOrnamented":false,"isStartPoint":false,"location":{"latitude":45.515318,"longitude":-122.683628},"title":"Church of Christ Scientist","type":"PORTAL","objective":{"type":"HACK_PORTAL","passphrase_params":{"question":"","_single_passphrase":""}}},{"description":"","guid":"411204969992485a8d3fe9b775e6e42b.16","imageUrl":"http://lh3.googleusercontent.com/MAAQ6Xf3LRhjHfXXABXguuyzOHlb3VMYhV8ebI_GH2R4teB_k6QJXI1KTASCutOXvtUtPUgWR_tR_D9GFl6L0Zg3cpw","isOrnamented":false,"isStartPoint":false,"location":{"latitude":45.515205,"longitude":-122.683849},"title":"From Within, Shalom by Steve Gilman","type":"PORTAL","objective":{"type":"HACK_PORTAL","passphrase_params":{"question":"","_single_passphrase":""}}},{"description":"","guid":"6bb21d818e1e433794a2a0df3692999f.16","imageUrl":"http://lh3.googleusercontent.com/McpxxtdUgjOFkzCDv9iR9WtA_l3weKccsELlnRONtuxrkV1PgYb2QMSIQbRSt4ZY1lFaHKpkMqLbmQMe8NB_F9vr283d","isOrnamented":false,"isStartPoint":false,"location":{"latitude":45.514914,"longitude":-122.683822},"title":"Cumberland Apartments","type":"PORTAL","objective":{"type":"HACK_PORTAL","passphrase_params":{"question":"","_single_passphrase":""}}},{"description":"","guid":"ce531e568e924724871cb661247c1f25.16","imageUrl":"http://lh3.googleusercontent.com/QwZChGdHm0_AHcQR8CIicjmj7RYLisjIKSPtbUprQ6FSjM329yoGZta8NgEImPRCThxjfftSFymtZoL1UlBzqIyO2wk","isOrnamented":false,"isStartPoint":false,"location":{"latitude":45.514509,"longitude":-122.684049},"title":"The Energy Bar","type":"PORTAL","objective":{"type":"HACK_PORTAL","passphrase_params":{"question":"","_single_passphrase":""}}},{"description":"","guid":"42b44f4f6e8e4f8382f9232b7f7352de.16","imageUrl":"http://lh3.googleusercontent.com/dGCQZTSoXeGZbX999Hqi4P4VNfVglfXyXHhIoZW-7PHS3XTDffymQNeM6PEx8aR5-nZRHlWY0aFw8SMrwevk-0cOTNY","isOrnamented":false,"isStartPoint":false,"location":{"latitude":45.514773,"longitude":-122.685077},"title":"The Electric Rose","type":"PORTAL","objective":{"type":"HACK_PORTAL","passphrase_params":{"question":"","_single_passphrase":""}}},{"description":"","guid":"97ac9af734b44868908adc525bfa79ab.16","imageUrl":"http://lh3.googleusercontent.com/w6_u-E9yUqE3h8bdQl_nSYm-E_CUTJwH6MzKx0LlspFClkCKTINGZ9XoaXFlXNQqsUsCpyjz5WhPfqc_OUx7oU8AmjL4","isOrnamented":false,"isStartPoint":false,"location":{"latitude":45.51513,"longitude":-122.684876},"title":"Ongford Apartments","type":"PORTAL","objective":{"type":"HACK_PORTAL","passphrase_params":{"question":"","_single_passphrase":""}}},{"description":"","guid":"7215bb611b4f43c686d5764442f068cf.16","imageUrl":"http://lh3.googleusercontent.com/t_erKYfQrMDWP0x7Ikr6_gkR11wdaFmMEOWTnG-LD2ylzBtcs1WDZZvJKUwc0-N-ubBlinHjqlbicV-O0RoOeXZPYm8","isOrnamented":false,"isStartPoint":false,"location":{"latitude":45.516029,"longitude":-122.684014},"title":"Broken Circle Sculpture","type":"PORTAL","objective":{"type":"HACK_PORTAL","passphrase_params":{"question":"","_single_passphrase":""}}},{"description":"","guid":"19204aeba406474589b0c6bd2bf63d40.16","imageUrl":"http://lh3.googleusercontent.com/9oE-7z1mznge0erkkrvykdk2fC889cEsF1m23-LsuYqwTbQ3-laLwua6UFNFjYwTExK0k-kM89tqn5aUmwb8fv0VAOw","isOrnamented":false,"isStartPoint":false,"location":{"latitude":45.516452,"longitude":-122.683922},"title":"Reverend Thomas Lamb Eliot Streetcar Stop","type":"PORTAL","objective":{"type":"HACK_PORTAL","passphrase_params":{"question":"","_single_passphrase":""}}},{"description":"","guid":"f8f77f33709b40e3b0cdfed6736c75aa.16","imageUrl":"http://lh3.googleusercontent.com/IAKc8308PN1kM_HLnPwqRXxpCC2n8kONr5VS5LElwZHdUr236xQpIS-VA7fX3uLUhjAEAoE9zZ6J9h_5Zn9CSvzkWdo2","isOrnamented":false,"isStartPoint":false,"location":{"latitude":45.51668,"longitude":-122.683683},"title":"Lions 1911","type":"PORTAL","objective":{"type":"HACK_PORTAL","passphrase_params":{"question":"","_single_passphrase":""}}}]},{"missionTitle":"Toasty Portland Halloween 6-6","missionDescription":"Have a Toasty Halloween in Portland!","portals":[{"description":"","guid":"67efa40675dd49fe920f4d96351b1d3d.16","imageUrl":"http://lh3.googleusercontent.com/pMMOdV9iBn_juNacpLS0Hhp0x4N0EI2ObDojtiOgb6lzG_bBJVqmhWcEbWMmWAwZBwAP2ThlaI7SjEDqBWpMqgq8voKA","isOrnamented":false,"isStartPoint":false,"location":{"latitude":45.514715,"longitude":-122.684746},"title":"Portland Korean Church","type":"PORTAL","objective":{"type":"HACK_PORTAL","passphrase_params":{"question":"","_single_passphrase":""}}},{"description":"","guid":"b29a28a53b8f4e35a978c0a00ef8f039.16","imageUrl":"http://lh3.googleusercontent.com/zlrX5AmwGWYlDdKItusAzjp0euDrvitmzaIMUjbdmkloCSElvvPu-pxlMcnUQqVnNBzb9mMwTCUblFY-x1AzxiLG-oSr","isOrnamented":false,"isStartPoint":false,"location":{"latitude":45.51535,"longitude":-122.684331},"title":"Christian Science Reading Room","type":"PORTAL","objective":{"type":"HACK_PORTAL","passphrase_params":{"question":"","_single_passphrase":""}}},{"description":"","guid":"b3ea8130482e46bb83eeb09284a453f2.16","imageUrl":"http://lh3.googleusercontent.com/aPmxYpLHl0A0mu_IiO8AQuHZlyCUQXN9jXwJ8fjlXTHdu7pAgrGxebdVcFtcXKpHB1b9aDc-DKtw3cgWUvWsk7Ik7cI","isOrnamented":false,"isStartPoint":false,"location":{"latitude":45.516894,"longitude":-122.683989},"title":"YWCA of Portland","type":"PORTAL","objective":{"type":"HACK_PORTAL","passphrase_params":{"question":"","_single_passphrase":""}}},{"description":"","guid":"160cdc8d6629469eba8d8a7913ec6fd2.16","imageUrl":"http://lh3.googleusercontent.com/Um0mNcaXdO-KRPwHTHLdlxl1-ppiKc9yp4KoQB1xUtMMOz7LZUhdKvh7cLRmJjBKjmelMIzKnTH9m7QUvkB8rkfc-Z1K","isOrnamented":false,"isStartPoint":false,"location":{"latitude":45.517005,"longitude":-122.683601},"title":"Liberty Equality Fraternity","type":"PORTAL","objective":{"type":"HACK_PORTAL","passphrase_params":{"question":"","_single_passphrase":""}}},{"description":"","guid":"11981584328f46289c443f76432cb027.16","imageUrl":"http://lh3.googleusercontent.com/w2oseA2KGn41E9NoaEqTPXpcCi8slIZi4WFFcHYdBlKkYuO3GrWiG02GVmemF8ftROOO04xJ2T62letGwIjS8zBDM004","isOrnamented":false,"isStartPoint":false,"location":{"latitude":45.517197,"longitude":-122.683378},"title":"Beehive Stone Relief","type":"PORTAL","objective":{"type":"HACK_PORTAL","passphrase_params":{"question":"","_single_passphrase":""}}},{"description":"","guid":"13494a3714da447981753d7de435bc66.12","imageUrl":"http://lh3.googleusercontent.com/gcp-8leT2rjRswbUFDhi4c81R8MMaLFzoO8OrRmgYCykfRNz4t0V6CXEXhT5ZQtwgOfQWuiq3ByBdP-LhZvBiaUmWw","isOrnamented":false,"isStartPoint":false,"location":{"latitude":45.517754,"longitude":-122.683078},"title":"Northwest Film Center","type":"PORTAL","objective":{"type":"HACK_PORTAL","passphrase_params":{"question":"","_single_passphrase":""}}},{"description":"","guid":"45df4575aaf44af7b4eed74fb60478f2.16","imageUrl":"http://lh3.googleusercontent.com/uzuq3fx3apEHE9EQ_fqTWSRpLpJFS9w5ehwrXtu-wdn3qqgjBri7RKd9f74grtvgrdXM5JCwe2iyRcUJu-yVu1zN_Cfz","isOrnamented":false,"isStartPoint":false,"location":{"latitude":45.517764,"longitude":-122.68258},"title":"Ell & Rost 1906 Historic Street Marker","type":"PORTAL","objective":{"type":"HACK_PORTAL","passphrase_params":{"question":"","_single_passphrase":""}}},{"description":"","guid":"80b01322c93049a6a4cb2d2b79950ff0.12","imageUrl":"http://lh3.googleusercontent.com/H69j7Mqtj-xXKbmBRFKTAsP-VjL0MRA7j_82frDAfjgtcZnPL4_odK6sE1V485cj1I2w2YsqS6DHfp8b20l6zZ7tgmg","isOrnamented":false,"isStartPoint":false,"location":{"latitude":45.517926,"longitude":-122.682277},"title":"SouthPark Salmon, Portland Or.","type":"PORTAL","objective":{"type":"HACK_PORTAL","passphrase_params":{"question":"","_single_passphrase":""}}}]}]}